[
  {
    "id": "3f1a9c2e-4c9b-4d4f-8c91-7a9b0c1e6a12",
    "name": "Eiffel Tower",
    "country": "France",
    "city": "Paris",
    "coordinates": {
      "lat": 48.8584,
      "long": 2.2945
    }
  },
  {
    "id": "a7b4d2f1-9e6c-4c2b-8a3e-1b7f8e9c4d55",
    "name": "Central Park",
    "country": "United States",
    "city": "New York",
    "coordinates": {
      "lat": 40.7829,
      "long": -73.9654
    }
  },
  {
    "id": "d9c2a6b4-1f8e-4a77-9c1d-6e5f0a2b3c11",
    "name": "Shibuya Crossing",
    "country": "Japan",
    "city": "Tokyo",
    "coordinates": {
      "lat": 35.6595,
      "long": 139.7005
    }
  },
  {
    "id": "5b6e1f9a-3c44-4b8e-9d2a-0c7e8f4a1123",
    "name": "Sydney Opera House",
    "country": "Australia",
    "city": "Sydney",
    "coordinates": {
      "lat": -33.8568,
      "long": 151.2153
    }
  },
  {
    "id": "e2a7c9b4-8d31-4a6c-9f55-1b3e6c7a8899",
    "name": "Table Mountain",
    "country": "South Africa",
    "city": "Cape Town",
    "coordinates": {
      "lat": -33.9628,
      "long": 18.4098
    }
  },
  {
    "id": "1c4b8e9d-2a6f-4d3e-8b71-9f0a5c6e7777",
    "name": "Colosseum",
    "country": "Italy",
    "city": "Rome",
    "coordinates": {
      "lat": 41.8902,
      "long": 12.4922
    }
  },
  {
    "id": "9a3f5e2b-6c8d-4e77-8a1b-2c4d6f0e3456",
    "name": "Christ the Redeemer",
    "country": "Brazil",
    "city": "Rio de Janeiro",
    "coordinates": {
      "lat": -22.9519,
      "long": -43.2105
    }
  },
  {
    "id": "6e9a2c5d-1b44-4f3a-9c8e-7d0b1a2f9988",
    "name": "Sagrada Fam√≠lia",
    "country": "Spain",
    "city": "Barcelona",
    "coordinates": {
      "lat": 41.4036,
      "long": 2.1744
    }
  },
  {
    "id": "4b2a7f8e-9d6c-4a1e-8f33-5c0b9d6a2211",
    "name": "Burj Khalifa",
    "country": "United Arab Emirates",
    "city": "Dubai",
    "coordinates": {
      "lat": 25.1972,
      "long": 55.2744
    }
  },
  {
    "id": "8f1c9d4a-5b7e-4c2f-9a6d-3e0b1a222abc",
    "name": "Machu Picchu",
    "country": "Peru",
    "city": "Cusco Region",
    "coordinates": {
      "lat": -13.1631,
      "long": -72.545
    }
  },
  {
    "id": "2d6f8a1c-7b4e-4a9d-9c55-3e1b0f8a6e90",
    "name": "Santorini Caldera",
    "country": "Greece",
    "city": "Santorini",
    "coordinates": {
      "lat": 36.3932,
      "long": 25.4615
    }
  },
  {
    "name": "Leeuwstraat",
    "country": "Belgium",
    "city": "Ghent",
    "coordinates": {
      "lat": 36.3932,
      "long": 25.4615
    },
    "id": "47bc0174-b3a4-4489-a214-916d083d2ce0"
  },
  {
    "name": "Leeuwstraat",
    "country": "Belgium",
    "city": "Ghent",
    "coordinates": {
      "lat": "36.3932",
      "long": 25.4615
    },
    "id": "89b49c49-4666-4e22-a939-015c97121dea"
  }
]